Numero,Distrito,wikiDistrito,Barrio,wikiBarrio,Calle,Direccion,N_Finca,Numero_de_Plazas,Ciudad,wikiCiudad,Longitud,Point,Latitud
1a,Centro,http://www.wikidata.org/entity/Q1763376,Sol,http://www.wikidata.org/entity/Q2465181,CALLE_DE_ALCALA,"CALLE DE ALCALA, 2",2,30,Madrid,http://www.wikidata.org/entity/Q2807,-3.701998,POINT(-3.701998  40.4171107),40.4171107
1b,Centro,http://www.wikidata.org/entity/Q1763376,Sol,http://www.wikidata.org/entity/Q2465181,CALLE_DE_ALCALA,"CALLE DE ALCALA, 6",6,30,Madrid,http://www.wikidata.org/entity/Q2807,-3.7015636,POINT(-3.7015636  40.4172132),40.4172132
2,Centro,http://www.wikidata.org/entity/Q1763376,Universidad,http://www.wikidata.org/entity/Q10387767,CALLE_DE_MIGUEL_MOYA,"CALLE DE MIGUEL MOYA, 1",1,24,Madrid,http://www.wikidata.org/entity/Q2807,-3.7056739,POINT(-3.7056739  40.42058),40.42058
3,Chamberí,http://www.wikidata.org/entity/Q1763370,Arapiles,http://www.wikidata.org/entity/Q10856744,PLAZA_DEL_CONDE_DEL_VALLE_DE_SUCHIL,"PLAZA DEL CONDE DEL VALLE DE SUCHIL, 2",2,18,Madrid,http://www.wikidata.org/entity/Q2807,-3.7072122,POINT(-3.7072122  40.4303224),40.4303224
4,Centro,http://www.wikidata.org/entity/Q1763376,Universidad,http://www.wikidata.org/entity/Q10387767,CALLE_DE_MANUELA_MALASANA,"CALLE DE MANUELA MALASAÑA, 3",3,24,Madrid,http://www.wikidata.org/entity/Q2807,-3.7026739,POINT(-3.7026739  40.4285905),40.4285905
5,Centro,http://www.wikidata.org/entity/Q1763376,Justicia,http://www.wikidata.org/entity/Q1992319,CALLE_DE_FUENCARRAL,"CALLE DE FUENCARRAL, 106",106,27,Madrid,http://www.wikidata.org/entity/Q2807,-3.7020743,POINT(-3.7020743  40.428362),40.428362
6,Centro,http://www.wikidata.org/entity/Q1763376,Justicia,http://www.wikidata.org/entity/Q1992319,CALLE_DE_HORTALEZA,"CALLE DE HORTALEZA, 63",63,24,Madrid,http://www.wikidata.org/entity/Q2807,-3.6984093,POINT(-3.6984093  40.4241633),40.4241633
7,Centro,http://www.wikidata.org/entity/Q1763376,Justicia,http://www.wikidata.org/entity/Q1992319,CALLE_DE_HORTALEZA,"CALLE DE HORTALEZA, 75",75,21,Madrid,http://www.wikidata.org/entity/Q2807,-3.6977399,POINT(-3.6977399  40.4252161),40.4252161
8,Chamberí,http://www.wikidata.org/entity/Q1763370,Almagro,http://www.wikidata.org/entity/Q10954432,PLAZA_DE_ALONSO_MARTINEZ,"PLAZA DE ALONSO MARTINEZ, 6",6,24,Madrid,http://www.wikidata.org/entity/Q2807,-3.6953067,POINT(-3.6953067  40.4277143),40.4277143
9,Centro,http://www.wikidata.org/entity/Q1763376,Palacio,http://www.wikidata.org/entity/Q2136510,PLAZA_DE_SAN_MIGUEL,"PLAZA DE SAN MIGUEL, 9",9,24,Madrid,http://www.wikidata.org/entity/Q2807,-3.7094093,POINT(-3.7094093  40.4156134),40.4156134
10,Centro,http://www.wikidata.org/entity/Q1763376,Justicia,http://www.wikidata.org/entity/Q1992319,CALLE_DEL_MARQUES_DE_LA_ENSENADA,"CALLE DEL MARQUES DE LA ENSENADA, 16",16,24,Madrid,http://www.wikidata.org/entity/Q2807,-3.6920816,POINT(-3.6920816  40.4254027),40.4254027
11,Centro,http://www.wikidata.org/entity/Q1763376,Universidad,http://www.wikidata.org/entity/Q10387767,CALLE_DE_SAN_ANDRES,"CALLE DE SAN ANDRES, 20",20,24,Madrid,http://www.wikidata.org/entity/Q2807,-3.7036192,POINT(-3.7036192  40.4270517),40.4270517
12,Centro,http://www.wikidata.org/entity/Q1763376,Universidad,http://www.wikidata.org/entity/Q10387767,CALLE_DE_SAN_BERNARDO,"CALLE DE SAN BERNARDO, 87",87,24,Madrid,http://www.wikidata.org/entity/Q2807,-3.7062202,POINT(-3.7062202  40.4285271),40.4285271
13,Centro,http://www.wikidata.org/entity/Q1763376,Universidad,http://www.wikidata.org/entity/Q10387767,CALLE_DEL_CONDE_DUQUE,"CALLE DEL CONDE DUQUE, 22",22,24,Madrid,http://www.wikidata.org/entity/Q2807,-3.7104727,POINT(-3.7104727  40.4273652),40.4273652
14,Moncloa-Aravaca,http://www.wikidata.org/entity/Q2017682,Argüelles,http://www.wikidata.org/entity/Q64874,CALLE_DE_VENTURA_RODRIGUEZ,"CALLE DE VENTURA RODRIGUEZ, 1",1,24,Madrid,http://www.wikidata.org/entity/Q2807,-3.7133768,POINT(-3.7133768  40.4259913),40.4259913
15,Centro,http://www.wikidata.org/entity/Q1763376,Universidad,http://www.wikidata.org/entity/Q10387767,CALLE_DEL_NORTE,"CALLE DEL NORTE, 10",10,21,Madrid,http://www.wikidata.org/entity/Q2807,-3.7073611,POINT(-3.7073611  40.4262937),40.4262937
16,Centro,http://www.wikidata.org/entity/Q1763376,Universidad,http://www.wikidata.org/entity/Q10387767,CALLE_DE_SAN_BERNARDO,"CALLE DE SAN BERNARDO, 22",22,21,Madrid,http://www.wikidata.org/entity/Q2807,-3.7074955,POINT(-3.7074955  40.4229421),40.4229421
17,Centro,http://www.wikidata.org/entity/Q1763376,Universidad,http://www.wikidata.org/entity/Q10387767,PLAZA_DE_CARLOS_CAMBRONERO,"PLAZA DE CARLOS CAMBRONERO, 2",2,24,Madrid,http://www.wikidata.org/entity/Q2807,-3.7041859,POINT(-3.7041859  40.4231675),40.4231675
18,Centro,http://www.wikidata.org/entity/Q1763376,Justicia,http://www.wikidata.org/entity/Q1992319,PLAZA_DE_PEDRO_ZEROLO,"PLAZA DE PEDRO ZEROLO, 1",1,24,Madrid,http://www.wikidata.org/entity/Q2807,-3.6995679,POINT(-3.6995679  40.4209206),40.4209206
19,Centro,http://www.wikidata.org/entity/Q1763376,Justicia,http://www.wikidata.org/entity/Q1992319,CALLE_DE_PRIM,"CALLE DE PRIM, 4",4,24,Madrid,http://www.wikidata.org/entity/Q2807,-3.6953951,POINT(-3.6953951  40.4218997),40.4218997
20a,Centro,http://www.wikidata.org/entity/Q1763376,Justicia,http://www.wikidata.org/entity/Q1992319,CALLE_DE_ALCALA,"CALLE DE ALCALA, 49",49,24,Madrid,http://www.wikidata.org/entity/Q2807,-3.6952095,POINT(-3.6952095  40.4191989),40.4191989
20b,Centro,http://www.wikidata.org/entity/Q1763376,Justicia,http://www.wikidata.org/entity/Q1992319,CALLE_DE_ALCALA,"CALLE DE ALCALA, 49",49,6,Madrid,http://www.wikidata.org/entity/Q2807,-3.6952901,POINT(-3.6952901  40.4191858),40.4191858
22,Centro,http://www.wikidata.org/entity/Q1763376,Sol,http://www.wikidata.org/entity/Q2465181,CALLE_DE_JACOMETREZO,"CALLE DE JACOMETREZO, 1",1,24,Madrid,http://www.wikidata.org/entity/Q2807,-3.7064995,POINT(-3.7064995  40.4201452),40.4201452
23,Centro,http://www.wikidata.org/entity/Q1763376,Palacio,http://www.wikidata.org/entity/Q2136510,PLAZA_DE_SANTO_DOMINGO,"PLAZA DE SANTO DOMINGO, S/N",S/N,24,Madrid,http://www.wikidata.org/entity/Q2807,-3.7082901,POINT(-3.7082901  40.4202137),40.4202137
24,Centro,http://www.wikidata.org/entity/Q1763376,Palacio,http://www.wikidata.org/entity/Q2136510,CALLE_DE_CARLOS_III,"CALLE DE CARLOS III, 1",1,24,Madrid,http://www.wikidata.org/entity/Q2807,-3.7105866,POINT(-3.7105866  40.417906),40.417906
25a,Centro,http://www.wikidata.org/entity/Q1763376,Sol,http://www.wikidata.org/entity/Q2465181,PLAZA_DEL_CELENQUE,"PLAZA DEL CELENQUE, 1",1,24,Madrid,http://www.wikidata.org/entity/Q2807,-3.7059978,POINT(-3.7059978  40.4173416),40.4173416
25b,Centro,http://www.wikidata.org/entity/Q1763376,Sol,http://www.wikidata.org/entity/Q2465181,PLAZA_DEL_CELENQUE,"PLAZA DEL CELENQUE, 1",1,24,Madrid,http://www.wikidata.org/entity/Q2807,-3.7060243,POINT(-3.7060243  40.4172593),40.4172593
26,Centro,http://www.wikidata.org/entity/Q1763376,Justicia,http://www.wikidata.org/entity/Q1992319,PLAZA_DE_LAS_SALESAS,"PLAZA DE LAS SALESAS, 8",8,24,Madrid,http://www.wikidata.org/entity/Q2807,-3.6945421,POINT(-3.6945421  40.4238308),40.4238308
27,Centro,http://www.wikidata.org/entity/Q1763376,Cortes,http://www.wikidata.org/entity/Q2535637,CALLE_DE_JESUS,"CALLE DE JESUS, 6",6,27,Madrid,http://www.wikidata.org/entity/Q2807,-3.6955803,POINT(-3.6955803  40.4132831),40.4132831
28,Centro,http://www.wikidata.org/entity/Q1763376,Cortes,http://www.wikidata.org/entity/Q2535637,CALLE_DE_ALCALA,"CALLE DE ALCALA, 26",26,24,Madrid,http://www.wikidata.org/entity/Q2807,-3.6983662,POINT(-3.6983662  40.4180695),40.4180695
29,Centro,http://www.wikidata.org/entity/Q1763376,Cortes,http://www.wikidata.org/entity/Q2535637,CALLE_DEL_MARQUES_DE_CUBAS,"CALLE DEL MARQUES DE CUBAS, 25",25,24,Madrid,http://www.wikidata.org/entity/Q2807,-3.6958008,POINT(-3.6958008  40.416244),40.416244
30,Centro,http://www.wikidata.org/entity/Q1763376,Palacio,http://www.wikidata.org/entity/Q2136510,CALLE_DE_PAVIA,"CALLE DE PAVIA, 6",6,27,Madrid,http://www.wikidata.org/entity/Q2807,-3.7115428,POINT(-3.7115428  40.4193355),40.4193355
31,Centro,http://www.wikidata.org/entity/Q1763376,Sol,http://www.wikidata.org/entity/Q2465181,CALLE_MAYOR,"CALLE MAYOR, 18",18,27,Madrid,http://www.wikidata.org/entity/Q2807,-3.706625,POINT(-3.706625  40.4163446),40.4163446
32,Centro,http://www.wikidata.org/entity/Q1763376,Sol,http://www.wikidata.org/entity/Q2465181,PLAZA_DE_LA_PROVINCIA,"PLAZA DE LA PROVINCIA, 1",1,18,Madrid,http://www.wikidata.org/entity/Q2807,-3.7061355,POINT(-3.7061355  40.4148511),40.4148511
33,Centro,http://www.wikidata.org/entity/Q1763376,Sol,http://www.wikidata.org/entity/Q2465181,CALLE_DE_LAS_CARRETAS,"CALLE DE LAS CARRETAS, 3",3,21,Madrid,http://www.wikidata.org/entity/Q2807,-3.7032096,POINT(-3.7032096  40.4164757),40.4164757
34,Centro,http://www.wikidata.org/entity/Q1763376,Cortes,http://www.wikidata.org/entity/Q2535637,PLAZA_DE_JACINTO_BENAVENTE,"PLAZA DE JACINTO BENAVENTE, S/N",S/N,24,Madrid,http://www.wikidata.org/entity/Q2807,-3.7035044,POINT(-3.7035044  40.4144117),40.4144117
35,Centro,http://www.wikidata.org/entity/Q1763376,Palacio,http://www.wikidata.org/entity/Q2136510,PLAZA_DEL_CORDON,"PLAZA DEL CORDON, 1",1,24,Madrid,http://www.wikidata.org/entity/Q2807,-3.7103676,POINT(-3.7103676  40.4141792),40.4141792
36,Centro,http://www.wikidata.org/entity/Q1763376,Palacio,http://www.wikidata.org/entity/Q2136510,PLAZA_DE_RAMALES,"PLAZA DE RAMALES, 5",5,24,Madrid,http://www.wikidata.org/entity/Q2807,-3.711764,POINT(-3.711764  40.4168229),40.4168229
37,Centro,http://www.wikidata.org/entity/Q1763376,Palacio,http://www.wikidata.org/entity/Q2136510,PLAZA_DE_SAN_FRANCISCO,"PLAZA DE SAN FRANCISCO, 5",5,24,Madrid,http://www.wikidata.org/entity/Q2807,-3.7141234,POINT(-3.7141234  40.4108606),40.4108606
38,Centro,http://www.wikidata.org/entity/Q1763376,Palacio,http://www.wikidata.org/entity/Q2136510,CARRERA_DE_SAN_FRANCISCO,"CARRERA DE SAN FRANCISCO, 1",1,24,Madrid,http://www.wikidata.org/entity/Q2807,-3.7114443,POINT(-3.7114443  40.4112961),40.4112961
39,Centro,http://www.wikidata.org/entity/Q1763376,Palacio,http://www.wikidata.org/entity/Q2136510,PLAZA_DE_LA_CEBADA,"PLAZA DE LA CEBADA, 16",16,27,Madrid,http://www.wikidata.org/entity/Q2807,-3.7090043,POINT(-3.7090043  40.4112662),40.4112662
40,Centro,http://www.wikidata.org/entity/Q1763376,Embajadores,http://www.wikidata.org/entity/Q2449844,CALLE_DEL_CONDE_DE_ROMANONES,"CALLE DEL CONDE DE ROMANONES, 2",2,24,Madrid,http://www.wikidata.org/entity/Q2807,-3.7047463,POINT(-3.7047463  40.4137865),40.4137865
41,Centro,http://www.wikidata.org/entity/Q1763376,Embajadores,http://www.wikidata.org/entity/Q2449844,CALLE_DE_ATOCHA,"CALLE DE ATOCHA, 56",56,18,Madrid,http://www.wikidata.org/entity/Q2807,-3.6989898,POINT(-3.6989898  40.412228),40.412228
42,Centro,http://www.wikidata.org/entity/Q1763376,Embajadores,http://www.wikidata.org/entity/Q2449844,CALLE_DE_SANTA_ISABEL,"CALLE DE SANTA ISABEL, 32",32,24,Madrid,http://www.wikidata.org/entity/Q2807,-3.6982294,POINT(-3.6982294  40.4107714),40.4107714
43,Centro,http://www.wikidata.org/entity/Q1763376,Embajadores,http://www.wikidata.org/entity/Q2449844,CALLE_DE_LAVAPIES,"CALLE DE LAVAPIES, 36",36,24,Madrid,http://www.wikidata.org/entity/Q2807,-3.7025446,POINT(-3.7025446  40.4100889),40.4100889
44,Centro,http://www.wikidata.org/entity/Q1763376,Embajadores,http://www.wikidata.org/entity/Q2449844,CALLE_DEL_MESON_DE_PAREDES,"CALLE DEL MESON DE PAREDES, 35",35,21,Madrid,http://www.wikidata.org/entity/Q2807,-3.7039138,POINT(-3.7039138  40.4098162),40.4098162
45,Centro,http://www.wikidata.org/entity/Q1763376,Embajadores,http://www.wikidata.org/entity/Q2449844,GLORIETA_DE_LA_PUERTA_DE_TOLEDO,"GLORIETA DE LA PUERTA DE TOLEDO, 1",1,21,Madrid,http://www.wikidata.org/entity/Q2807,-3.7111381,POINT(-3.7111381  40.4069486),40.4069486
46,Arganzuela,http://www.wikidata.org/entity/Q2000929,Las Acacias,http://www.wikidata.org/entity/Q3319190,CALLE_DE_LA_RIBERA_DE_CURTIDORES,"CALLE DE LA RIBERA DE CURTIDORES, 28",28,24,Madrid,http://www.wikidata.org/entity/Q2807,-3.7071178,POINT(-3.7071178  40.4054496),40.4054496
47,Arganzuela,http://www.wikidata.org/entity/Q2000929,Las Acacias,http://www.wikidata.org/entity/Q3319190,GLORIETA_DE_EMBAJADORES,"GLORIETA DE EMBAJADORES, 7 B",7 B,24,Madrid,http://www.wikidata.org/entity/Q2807,-3.702755,POINT(-3.702755  40.4046233),40.4046233
48,Centro,http://www.wikidata.org/entity/Q1763376,Embajadores,http://www.wikidata.org/entity/Q2449844,GLORIETA_DE_EMBAJADORES,"GLORIETA DE EMBAJADORES, 2",2,24,Madrid,http://www.wikidata.org/entity/Q2807,-3.7020997,POINT(-3.7020997  40.4054473),40.4054473
49,Centro,http://www.wikidata.org/entity/Q1763376,Embajadores,http://www.wikidata.org/entity/Q2449844,RONDA_DE_ATOCHA,"RONDA DE ATOCHA, 36",36,24,Madrid,http://www.wikidata.org/entity/Q2807,-3.6992427,POINT(-3.6992427  40.4060497),40.4060497
50,Centro,http://www.wikidata.org/entity/Q1763376,Embajadores,http://www.wikidata.org/entity/Q2449844,CALLE_DE_SANTA_ISABEL,"CALLE DE SANTA ISABEL, 57",57,24,Madrid,http://www.wikidata.org/entity/Q2807,-3.69322,POINT(-3.69322  40.4083102),40.4083102
51,Centro,http://www.wikidata.org/entity/Q1763376,Embajadores,http://www.wikidata.org/entity/Q2449844,PLAZA_DEL_EMPERADOR_CARLOS_V,"PLAZA DEL EMPERADOR CARLOS V, 7",7,27,Madrid,http://www.wikidata.org/entity/Q2807,-3.6935934,POINT(-3.6935934  40.4077234),40.4077234
52,Centro,http://www.wikidata.org/entity/Q1763376,Cortes,http://www.wikidata.org/entity/Q2535637,PLAZA_DE_SANTA_ANA,"PLAZA DE SANTA ANA, 9",9,24,Madrid,http://www.wikidata.org/entity/Q2807,-3.7007838,POINT(-3.7007838  40.4145181),40.4145181
53,Centro,http://www.wikidata.org/entity/Q1763376,Embajadores,http://www.wikidata.org/entity/Q2449844,CALLE_DE_VALENCIA,"CALLE DE VALENCIA, 2",2,24,Madrid,http://www.wikidata.org/entity/Q2807,-3.7007295,POINT(-3.7007295  40.4082802),40.4082802
54,Centro,http://www.wikidata.org/entity/Q1763376,Justicia,http://www.wikidata.org/entity/Q1992319,CALLE_DE_BARCELO,"CALLE DE BARCELO, 7",7,21,Madrid,http://www.wikidata.org/entity/Q2807,-3.7003435,POINT(-3.7003435  40.4266233),40.4266233
55,Centro,http://www.wikidata.org/entity/Q1763376,Universidad,http://www.wikidata.org/entity/Q10387767,PLAZA_DE_SAN_ILDEFONSO,"PLAZA DE SAN ILDEFONSO, 8",8,24,Madrid,http://www.wikidata.org/entity/Q2807,-3.7019295,POINT(-3.7019295  40.4240716),40.4240716
56,Centro,http://www.wikidata.org/entity/Q1763376,Sol,http://www.wikidata.org/entity/Q2465181,PLAZA_DEL_CARMEN,"PLAZA DEL CARMEN, 1",1,24,Madrid,http://www.wikidata.org/entity/Q2807,-3.7032875,POINT(-3.7032875  40.418484),40.418484
57,Centro,http://www.wikidata.org/entity/Q1763376,Universidad,http://www.wikidata.org/entity/Q10387767,CALLE_DE_SANTA_CRUZ_DE_MARCENADO,"CALLE DE SANTA CRUZ DE MARCENADO, 24",24,24,Madrid,http://www.wikidata.org/entity/Q2807,-3.7128181,POINT(-3.7128181  40.4296363),40.4296363
58,Centro,http://www.wikidata.org/entity/Q1763376,Justicia,http://www.wikidata.org/entity/Q1992319,CALLE_DE_AUGUSTO_FIGUEROA,"CALLE DE AUGUSTO FIGUEROA, 33",33,24,Madrid,http://www.wikidata.org/entity/Q2807,-3.6979458,POINT(-3.6979458  40.4222601),40.4222601
59,Centro,http://www.wikidata.org/entity/Q1763376,Universidad,http://www.wikidata.org/entity/Q10387767,CALLE_DEL_ESPIRITU_SANTO,"CALLE DEL ESPIRITU SANTO, 30",30,21,Madrid,http://www.wikidata.org/entity/Q2807,-3.7041167,POINT(-3.7041167  40.4254802),40.4254802
60,Retiro,http://www.wikidata.org/entity/Q2002296,Jerónimos,http://www.wikidata.org/entity/Q10306766,PLAZA_DE_LA_INDEPENDENCIA,"PLAZA DE LA INDEPENDENCIA, 7",7,24,Madrid,http://www.wikidata.org/entity/Q2807,-3.6881994,POINT(-3.6881994  40.4194508),40.4194508
61,Retiro,http://www.wikidata.org/entity/Q2002296,Ibiza,http://www.wikidata.org/entity/Q15249910,CALLE_DE_ODONNELL,"CALLE DE O'DONNELL, 30",30,24,Madrid,http://www.wikidata.org/entity/Q2807,-3.675206,POINT(-3.675206  40.4214379),40.4214379
62,Retiro,http://www.wikidata.org/entity/Q2002296,Ibiza,http://www.wikidata.org/entity/Q15249910,CALLE_DE_ODONNELL,"CALLE DE O'DONNELL, 48",48,24,Madrid,http://www.wikidata.org/entity/Q2807,-3.6724223,POINT(-3.6724223  40.4212986),40.4212986
63,Retiro,http://www.wikidata.org/entity/Q2002296,Ibiza,http://www.wikidata.org/entity/Q15249910,CALLE_DE_IBIZA,"CALLE DE IBIZA, 64",64,24,Madrid,http://www.wikidata.org/entity/Q2807,-3.6706508,POINT(-3.6706508  40.4178926),40.4178926
65,Retiro,http://www.wikidata.org/entity/Q2002296,Jerónimos,http://www.wikidata.org/entity/Q10306766,CALLE_DE_ANTONIO_MAURA,"CALLE DE ANTONIO MAURA, 15",15,24,Madrid,http://www.wikidata.org/entity/Q2807,-3.6893825,POINT(-3.6893825  40.4166859),40.4166859
67,Centro,http://www.wikidata.org/entity/Q1763376,Cortes,http://www.wikidata.org/entity/Q2535637,CALLE_DE_ALMADEN,"CALLE DE ALMADEN, 28",28,24,Madrid,http://www.wikidata.org/entity/Q2807,-3.6931349,POINT(-3.6931349  40.410829),40.410829
68,Retiro,http://www.wikidata.org/entity/Q2002296,Jerónimos,http://www.wikidata.org/entity/Q10306766,CALLE_DE_ESPALTER,"CALLE DE ESPALTER, 1",1,21,Madrid,http://www.wikidata.org/entity/Q2807,-3.6911649,POINT(-3.6911649  40.412781),40.412781
69,Retiro,http://www.wikidata.org/entity/Q2002296,Jerónimos,http://www.wikidata.org/entity/Q10306766,CALLE_DE_ALFONSO_XII,"CALLE DE ALFONSO XII, 54",54,27,Madrid,http://www.wikidata.org/entity/Q2807,-3.6888669,POINT(-3.6888669  40.4100609),40.4100609
70,Retiro,http://www.wikidata.org/entity/Q2002296,Jerónimos,http://www.wikidata.org/entity/Q10306766,AVENIDA_DE_MENENDEZ_PELAYO,"AVENIDA DE MENENDEZ PELAYO, 63",63,24,Madrid,http://www.wikidata.org/entity/Q2807,-3.6777994,POINT(-3.6777994  40.4152203),40.4152203
71,Retiro,http://www.wikidata.org/entity/Q2002296,Niño Jesús,http://www.wikidata.org/entity/Q3773746,CALLE_DEL_DOCE_DE_OCTUBRE,"CALLE DEL DOCE DE OCTUBRE, 28",28,24,Madrid,http://www.wikidata.org/entity/Q2807,-3.674021,POINT(-3.674021  40.4160054),40.4160054
72,Retiro,http://www.wikidata.org/entity/Q2002296,Niño Jesús,http://www.wikidata.org/entity/Q3773746,CALLE_DEL_DOCTOR_ESQUERDO,"CALLE DEL DOCTOR ESQUERDO, 62",62,24,Madrid,http://www.wikidata.org/entity/Q2807,-3.669623,POINT(-3.669623  40.415721),40.415721
73,Retiro,http://www.wikidata.org/entity/Q2002296,Estrella,http://www.wikidata.org/entity/Q3773738,PLAZA_DE_LOS_ASTROS,"PLAZA DE LOS ASTROS, S/N",S/N,24,Madrid,http://www.wikidata.org/entity/Q2807,-3.669099,POINT(-3.669099  40.411463),40.411463
74,Retiro,http://www.wikidata.org/entity/Q2002296,Jerónimos,http://www.wikidata.org/entity/Q10306766,AVENIDA_DE_MENENDEZ_PELAYO,"AVENIDA DE MENENDEZ PELAYO, S/N",S/N,24,Madrid,http://www.wikidata.org/entity/Q2807,-3.6765768,POINT(-3.6765768  40.4117601),40.4117601
75,Retiro,http://www.wikidata.org/entity/Q2002296,Jerónimos,http://www.wikidata.org/entity/Q10306766,AVENIDA_DE_MENENDEZ_PELAYO,"AVENIDA DE MENENDEZ PELAYO, S/N",S/N,24,Madrid,http://www.wikidata.org/entity/Q2807,-3.6784149,POINT(-3.6784149  40.4083387),40.4083387
76,Retiro,http://www.wikidata.org/entity/Q2002296,Niño Jesús,http://www.wikidata.org/entity/Q3773746,AVENIDA_DEL_MEDITERRANEO,"AVENIDA DEL MEDITERRANEO, 19",19,24,Madrid,http://www.wikidata.org/entity/Q2807,-3.6751544,POINT(-3.6751544  40.4072851),40.4072851
77,Retiro,http://www.wikidata.org/entity/Q2002296,Pacífico,http://www.wikidata.org/entity/Q3773753,PLAZA_DEL_CONDE_DE_CASAL,"PLAZA DEL CONDE DE CASAL, 8",8,22,Madrid,http://www.wikidata.org/entity/Q2807,-3.6707742,POINT(-3.6707742  40.4063347),40.4063347
78,Retiro,http://www.wikidata.org/entity/Q2002296,Adelfas,http://www.wikidata.org/entity/Q3774001,CALLE_DEL_CERRO_DE_LA_PLATA,"CALLE DEL CERRO DE LA PLATA, 2",2,24,Madrid,http://www.wikidata.org/entity/Q2807,-3.6745783,POINT(-3.6745783  40.4005704),40.4005704
79,Retiro,http://www.wikidata.org/entity/Q2002296,Pacífico,http://www.wikidata.org/entity/Q3773753,AVENIDA_DE_MENENDEZ_PELAYO,"AVENIDA DE MENENDEZ PELAYO, 38",38,24,Madrid,http://www.wikidata.org/entity/Q2807,-3.6805524,POINT(-3.6805524  40.4050482),40.4050482
80a,Arganzuela,http://www.wikidata.org/entity/Q2000929,Atocha,http://www.wikidata.org/entity/Q3814594,AVENIDA_DE_LA_CIUDAD_DE_BARCELONA,"AVENIDA DE LA CIUDAD DE BARCELONA, S/N",S/N,24,Madrid,http://www.wikidata.org/entity/Q2807,-3.6904816,POINT(-3.6904816  40.4074122),40.4074122
80b,Arganzuela,http://www.wikidata.org/entity/Q2000929,Atocha,http://www.wikidata.org/entity/Q3814594,AVENIDA_DE_LA_CIUDAD_DE_BARCELONA,"AVENIDA DE LA CIUDAD DE BARCELONA, S/N",S/N,27,Madrid,http://www.wikidata.org/entity/Q2807,-3.6907238,POINT(-3.6907238  40.407626),40.407626
81,Retiro,http://www.wikidata.org/entity/Q2002296,Jerónimos,http://www.wikidata.org/entity/Q10306766,CALLE_DE_CLAUDIO_MOYANO,"CALLE DE CLAUDIO MOYANO, S/N",S/N,24,Madrid,http://www.wikidata.org/entity/Q2807,-3.6919663,POINT(-3.6919663  40.4095758),40.4095758
82,Retiro,http://www.wikidata.org/entity/Q2002296,Estrella,http://www.wikidata.org/entity/Q3773738,CALLE_DE_LA_LIRA,"CALLE DE LA LIRA, 2",2,24,Madrid,http://www.wikidata.org/entity/Q2807,-3.669683,POINT(-3.669683  40.4084793),40.4084793
83,Retiro,http://www.wikidata.org/entity/Q2002296,Niño Jesús,http://www.wikidata.org/entity/Q3773746,CALLE_DE_PIO_BAROJA,"CALLE DE PIO BAROJA, 8 B",8 B,24,Madrid,http://www.wikidata.org/entity/Q2807,-3.6745339,POINT(-3.6745339  40.4132589),40.4132589
84,Retiro,http://www.wikidata.org/entity/Q2002296,Adelfas,http://www.wikidata.org/entity/Q3774001,CALLE_DEL_DOCTOR_ESQUERDO,"CALLE DEL DOCTOR ESQUERDO, 191",191,24,Madrid,http://www.wikidata.org/entity/Q2807,-3.6726923,POINT(-3.6726923  40.4033695),40.4033695
85,Retiro,http://www.wikidata.org/entity/Q2002296,Jerónimos,http://www.wikidata.org/entity/Q10306766,AVENIDA_DE_MENENDEZ_PELAYO,"AVENIDA DE MENENDEZ PELAYO, 9",9,27,Madrid,http://www.wikidata.org/entity/Q2807,-3.6799299,POINT(-3.6799299  40.4211415),40.4211415
86,Centro,http://www.wikidata.org/entity/Q1763376,Cortes,http://www.wikidata.org/entity/Q2535637,PASEO_DEL_PRADO,"PASEO DEL PRADO, S/N",S/N,21,Madrid,http://www.wikidata.org/entity/Q2807,-3.6933298,POINT(-3.6933298  40.4185779),40.4185779
87,Salamanca,http://www.wikidata.org/entity/Q1773521,Recoletos,http://www.wikidata.org/entity/Q3814551,CALLE_DE_AYALA,"CALLE DE AYALA, 44",44,24,Madrid,http://www.wikidata.org/entity/Q2807,-3.6835631,POINT(-3.6835631  40.4276717),40.4276717
88,Salamanca,http://www.wikidata.org/entity/Q1773521,Castellana,http://www.wikidata.org/entity/Q4781,CALLE_DE_VELAZQUEZ,"CALLE DE VELAZQUEZ, 73",73,24,Madrid,http://www.wikidata.org/entity/Q2807,-3.6837471,POINT(-3.6837471  40.4312077),40.4312077
89,Salamanca,http://www.wikidata.org/entity/Q1773521,Goya,http://www.wikidata.org/entity/Q3814578,CALLE_DE_AYALA,"CALLE DE AYALA, 102",102,24,Madrid,http://www.wikidata.org/entity/Q2807,-3.6751716,POINT(-3.6751716  40.4272628),40.4272628
90a,Salamanca,http://www.wikidata.org/entity/Q1773521,Recoletos,http://www.wikidata.org/entity/Q3814551,CALLE_DE_GOYA,"CALLE DE GOYA, 18",18,24,Madrid,http://www.wikidata.org/entity/Q2807,-3.6837297,POINT(-3.6837297  40.4250878),40.4250878
90b,Salamanca,http://www.wikidata.org/entity/Q1773521,Recoletos,http://www.wikidata.org/entity/Q3814551,CALLE_DE_GOYA,"CALLE DE GOYA, 20",20,6,Madrid,http://www.wikidata.org/entity/Q2807,-3.6835613,POINT(-3.6835613  40.4250791),40.4250791
91,Salamanca,http://www.wikidata.org/entity/Q1773521,Goya,http://www.wikidata.org/entity/Q3814578,CALLE_DE_HERMOSILLA,"CALLE DE HERMOSILLA, 73",73,24,Madrid,http://www.wikidata.org/entity/Q2807,-3.6788203,POINT(-3.6788203  40.4261113),40.4261113
92,Salamanca,http://www.wikidata.org/entity/Q1773521,Recoletos,http://www.wikidata.org/entity/Q3814551,CALLE_DE_CLAUDIO_COELLO,"CALLE DE CLAUDIO COELLO, 45",45,24,Madrid,http://www.wikidata.org/entity/Q2807,-3.6864821,POINT(-3.6864821  40.4262237),40.4262237
93,Salamanca,http://www.wikidata.org/entity/Q1773521,Recoletos,http://www.wikidata.org/entity/Q3814551,CALLE_DE_GOYA,"CALLE DE GOYA, 3",3,24,Madrid,http://www.wikidata.org/entity/Q2807,-3.6894124,POINT(-3.6894124  40.4256984),40.4256984
94,Salamanca,http://www.wikidata.org/entity/Q1773521,Recoletos,http://www.wikidata.org/entity/Q3814551,PASEO_DE_RECOLETOS,"PASEO DE RECOLETOS, 22",22,21,Madrid,http://www.wikidata.org/entity/Q2807,-3.6907044,POINT(-3.6907044  40.4233686),40.4233686
95,Salamanca,http://www.wikidata.org/entity/Q1773521,Recoletos,http://www.wikidata.org/entity/Q3814551,CALLE_DE_CLAUDIO_COELLO,"CALLE DE CLAUDIO COELLO, 19",19,24,Madrid,http://www.wikidata.org/entity/Q2807,-3.6869914,POINT(-3.6869914  40.4226634),40.4226634
96,Salamanca,http://www.wikidata.org/entity/Q1773521,Recoletos,http://www.wikidata.org/entity/Q3814551,CALLE_DE_ALCALA,"CALLE DE ALCALA, 111",111,27,Madrid,http://www.wikidata.org/entity/Q2807,-3.6820471,POINT(-3.6820471  40.4220516),40.4220516
97,Salamanca,http://www.wikidata.org/entity/Q1773521,Goya,http://www.wikidata.org/entity/Q3814578,AVENIDA_DE_MENENDEZ_PELAYO,"AVENIDA DE MENENDEZ PELAYO, 1",1,27,Madrid,http://www.wikidata.org/entity/Q2807,-3.6801515,POINT(-3.6801515  40.4224846),40.4224846
98,Salamanca,http://www.wikidata.org/entity/Q1773521,Goya,http://www.wikidata.org/entity/Q3814578,AVENIDA_DE_FELIPE_II,"AVENIDA DE FELIPE II, 5",5,24,Madrid,http://www.wikidata.org/entity/Q2807,-3.6754079,POINT(-3.6754079  40.4241911),40.4241911
99,Salamanca,http://www.wikidata.org/entity/Q1773521,Goya,http://www.wikidata.org/entity/Q3814578,CALLE_DE_ALCANTARA,"CALLE DE ALCANTARA, 2",2,24,Madrid,http://www.wikidata.org/entity/Q2807,-3.6739638,POINT(-3.6739638  40.4261048),40.4261048
100,Salamanca,http://www.wikidata.org/entity/Q1773521,Goya,http://www.wikidata.org/entity/Q3814578,CALLE_DE_GOYA,"CALLE DE GOYA, 99",99,24,Madrid,http://www.wikidata.org/entity/Q2807,-3.6738777,POINT(-3.6738777  40.4247843),40.4247843
101,Salamanca,http://www.wikidata.org/entity/Q1773521,Goya,http://www.wikidata.org/entity/Q3814578,CALLE_DE_JORGE_JUAN,"CALLE DE JORGE JUAN, 131",131,24,Madrid,http://www.wikidata.org/entity/Q2807,-3.6694246,POINT(-3.6694246  40.4231223),40.4231223
102,Salamanca,http://www.wikidata.org/entity/Q1773521,Recoletos,http://www.wikidata.org/entity/Q3814551,CALLE_DE_ALCALA,"CALLE DE ALCALA, 95",95,24,Madrid,http://www.wikidata.org/entity/Q2807,-3.6840806,POINT(-3.6840806  40.4211552),40.4211552
103,Salamanca,http://www.wikidata.org/entity/Q1773521,Castellana,http://www.wikidata.org/entity/Q4781,CALLE_DE_JOSE_ORTEGA_Y_GASSET,"CALLE DE JOSE ORTEGA Y GASSET, 4",4,24,Madrid,http://www.wikidata.org/entity/Q2807,-3.6865351,POINT(-3.6865351  40.4303733),40.4303733
104,Salamanca,http://www.wikidata.org/entity/Q1773521,Recoletos,http://www.wikidata.org/entity/Q3814551,PASEO_DE_LA_CASTELLANA,"PASEO DE LA CASTELLANA, 4",4,21,Madrid,http://www.wikidata.org/entity/Q2807,-3.6895792,POINT(-3.6895792  40.4267658),40.4267658
105,Salamanca,http://www.wikidata.org/entity/Q1773521,Recoletos,http://www.wikidata.org/entity/Q3814551,CALLE_DE_SERRANO,"CALLE DE SERRANO, 46",46,24,Madrid,http://www.wikidata.org/entity/Q2807,-3.6874745,POINT(-3.6874745  40.4270684),40.4270684
106a,Salamanca,http://www.wikidata.org/entity/Q1773521,Recoletos,http://www.wikidata.org/entity/Q3814551,CALLE_DE_SERRANO,"CALLE DE SERRANO, 32",32,18,Madrid,http://www.wikidata.org/entity/Q2807,-3.6878868,POINT(-3.6878868  40.4248642),40.4248642
106b,Salamanca,http://www.wikidata.org/entity/Q1773521,Recoletos,http://www.wikidata.org/entity/Q3814551,CALLE_DE_SERRANO,"CALLE DE SERRANO, 34",34,18,Madrid,http://www.wikidata.org/entity/Q2807,-3.6878604,POINT(-3.6878604  40.4250085),40.4250085
107,Salamanca,http://www.wikidata.org/entity/Q1773521,Recoletos,http://www.wikidata.org/entity/Q3814551,CALLE_DE_SERRANO,"CALLE DE SERRANO, 8",8,24,Madrid,http://www.wikidata.org/entity/Q2807,-3.6884243,POINT(-3.6884243  40.4215952),40.4215952
108,Salamanca,http://www.wikidata.org/entity/Q1773521,Goya,http://www.wikidata.org/entity/Q3814578,CALLE_DE_LAS_MARTIRES_CONCEPCIONISTAS,"CALLE DE LAS MARTIRES CONCEPCIONISTAS, 2",2,27,Madrid,http://www.wikidata.org/entity/Q2807,-3.670653,POINT(-3.670653  40.4274425),40.4274425
109,Salamanca,http://www.wikidata.org/entity/Q1773521,Castellana,http://www.wikidata.org/entity/Q4781,CALLE_DE_JOSE_ORTEGA_Y_GASSET,"CALLE DE JOSE ORTEGA Y GASSET, 32",32,24,Madrid,http://www.wikidata.org/entity/Q2807,-3.6815253,POINT(-3.6815253  40.4301281),40.4301281
110,Moncloa-Aravaca,http://www.wikidata.org/entity/Q2017682,Casa de Campo,http://www.wikidata.org/entity/Q16302441,PASEO_DE_MORET,"PASEO DE MORET, S/N",S/N,24,Madrid,http://www.wikidata.org/entity/Q2807,-3.7201316,POINT(-3.7201316  40.4347654),40.4347654
111a,Chamberí,http://www.wikidata.org/entity/Q1763370,Gaztambide,http://www.wikidata.org/entity/Q10288587,CALLE_DEL_ARCIPRESTE_DE_HITA,"CALLE DEL ARCIPRESTE DE HITA, 8",8,24,Madrid,http://www.wikidata.org/entity/Q2807,-3.7174896,POINT(-3.7174896  40.4335742),40.4335742
111b,Chamberí,http://www.wikidata.org/entity/Q1763370,Gaztambide,http://www.wikidata.org/entity/Q10288587,CALLE_DEL_ARCIPRESTE_DE_HITA,"CALLE DEL ARCIPRESTE DE HITA, 12",12,24,Madrid,http://www.wikidata.org/entity/Q2807,-3.7177783,POINT(-3.7177783  40.433982),40.433982
112,Moncloa-Aravaca,http://www.wikidata.org/entity/Q2017682,Argüelles,http://www.wikidata.org/entity/Q64874,PASEO_DE_MORET,"PASEO DE MORET, 11",11,24,Madrid,http://www.wikidata.org/entity/Q2807,-3.7248727,POINT(-3.7248727  40.4326267),40.4326267
113,Moncloa-Aravaca,http://www.wikidata.org/entity/Q2017682,Casa de Campo,http://www.wikidata.org/entity/Q16302441,PASEO_DEL_PINTOR_ROSALES,"PASEO DEL PINTOR ROSALES, 38",38,24,Madrid,http://www.wikidata.org/entity/Q2807,-3.7207145,POINT(-3.7207145  40.4277472),40.4277472
114,Moncloa-Aravaca,http://www.wikidata.org/entity/Q2017682,Argüelles,http://www.wikidata.org/entity/Q64874,CALLE_DE_QUINTANA,"CALLE DE QUINTANA, 13",13,24,Madrid,http://www.wikidata.org/entity/Q2807,-3.7174151,POINT(-3.7174151  40.4278211),40.4278211
115,Moncloa-Aravaca,http://www.wikidata.org/entity/Q2017682,Argüelles,http://www.wikidata.org/entity/Q64874,PLAZA_DEL_MARQUES_DE_CERRALBO,"PLAZA DEL MARQUES DE CERRALBO, S/N",S/N,24,Madrid,http://www.wikidata.org/entity/Q2807,-3.7169626,POINT(-3.7169626  40.4253802),40.4253802
116a,Moncloa-Aravaca,http://www.wikidata.org/entity/Q2017682,Argüelles,http://www.wikidata.org/entity/Q64874,PLAZA_DE_ESPANA,"PLAZA DE ESPAÑA, S/N",S/N,24,Madrid,http://www.wikidata.org/entity/Q2807,-3.7117588,POINT(-3.7117588  40.4240632),40.4240632
116b,Moncloa-Aravaca,http://www.wikidata.org/entity/Q2017682,Argüelles,http://www.wikidata.org/entity/Q64874,PLAZA_DE_ESPANA,"PLAZA DE ESPAÑA, S/N",S/N,24,Madrid,http://www.wikidata.org/entity/Q2807,-3.7118457,POINT(-3.7118457  40.4241889),40.4241889
117,Moncloa-Aravaca,http://www.wikidata.org/entity/Q2017682,Argüelles,http://www.wikidata.org/entity/Q64874,CALLE_DE_ALTAMIRANO,"CALLE DE ALTAMIRANO, 24",24,24,Madrid,http://www.wikidata.org/entity/Q2807,-3.7189152,POINT(-3.7189152  40.4309046),40.4309046
118,Arganzuela,http://www.wikidata.org/entity/Q2000929,Palos de Moguer,http://www.wikidata.org/entity/Q521009,CALLE_DE_JUAN_MARTIN_EL_EMPECINADO,"CALLE DE JUAN MARTIN EL EMPECINADO, 16",16,24,Madrid,http://www.wikidata.org/entity/Q2807,-3.688135,POINT(-3.688135  40.4007959),40.4007959
119,Arganzuela,http://www.wikidata.org/entity/Q2000929,Atocha,http://www.wikidata.org/entity/Q3814594,CALLE_DE_MENDEZ_ALVARO,"CALLE DE MENDEZ ALVARO, 7",7,24,Madrid,http://www.wikidata.org/entity/Q2807,-3.6865777,POINT(-3.6865777  40.4014567),40.4014567
120,Arganzuela,http://www.wikidata.org/entity/Q2000929,Palos de Moguer,http://www.wikidata.org/entity/Q521009,CALLE_DE_PALOS_DE_LA_FRONTERA,"CALLE DE PALOS DE LA FRONTERA, 27",27,24,Madrid,http://www.wikidata.org/entity/Q2807,-3.6947791,POINT(-3.6947791  40.4030362),40.4030362
121,Arganzuela,http://www.wikidata.org/entity/Q2000929,Palos de Moguer,http://www.wikidata.org/entity/Q521009,PASEO_DE_SANTA_MARIA_DE_LA_CABEZA,"PASEO DE SANTA MARIA DE LA CABEZA, 58",58,24,Madrid,http://www.wikidata.org/entity/Q2807,-3.6986046,POINT(-3.6986046  40.4018356),40.4018356
122,Chamberí,http://www.wikidata.org/entity/Q1763370,Almagro,http://www.wikidata.org/entity/Q10954432,CALLE_DE_SANTA_ENGRACIA,"CALLE DE SANTA ENGRACIA, 16",16,24,Madrid,http://www.wikidata.org/entity/Q2807,-3.6962626,POINT(-3.6962626  40.429524),40.429524
123,Chamberí,http://www.wikidata.org/entity/Q1763370,Gaztambide,http://www.wikidata.org/entity/Q10288587,CALLE_DE_GUZMAN_EL_BUENO,"CALLE DE GUZMAN EL BUENO, 2",2,24,Madrid,http://www.wikidata.org/entity/Q2807,-3.7134685,POINT(-3.7134685  40.4306386),40.4306386
124,Chamberí,http://www.wikidata.org/entity/Q1763370,Trafalgar,http://www.wikidata.org/entity/Q10384027,CALLE_DE_MANUEL_SILVELA,"CALLE DE MANUEL SILVELA, 18",18,24,Madrid,http://www.wikidata.org/entity/Q2807,-3.6993182,POINT(-3.6993182  40.4308173),40.4308173
125,Chamberí,http://www.wikidata.org/entity/Q1763370,Almagro,http://www.wikidata.org/entity/Q10954432,CALLE_DE_FERNANDEZ_DE_LA_HOZ,"CALLE DE FERNANDEZ DE LA HOZ, 29",29,24,Madrid,http://www.wikidata.org/entity/Q2807,-3.6948316,POINT(-3.6948316  40.4353128),40.4353128
126,Chamberí,http://www.wikidata.org/entity/Q1763370,Trafalgar,http://www.wikidata.org/entity/Q10384027,CALLE_DEL_GENERAL_ALVAREZ_DE_CASTRO,"CALLE DEL GENERAL ALVAREZ DE CASTRO, 4",4,24,Madrid,http://www.wikidata.org/entity/Q2807,-3.7017424,POINT(-3.7017424  40.4345672),40.4345672
127,Chamberí,http://www.wikidata.org/entity/Q1763370,Arapiles,http://www.wikidata.org/entity/Q10856744,CALLE_DE_FERNANDO_EL_CATOLICO,"CALLE DE FERNANDO EL CATOLICO, 19",19,24,Madrid,http://www.wikidata.org/entity/Q2807,-3.7083987,POINT(-3.7083987  40.4339055),40.4339055
128a,Chamberí,http://www.wikidata.org/entity/Q1763370,Gaztambide,http://www.wikidata.org/entity/Q10288587,CALLE_DE_CEA_BERMUDEZ,"CALLE DE CEA BERMUDEZ, 59",59,24,Madrid,http://www.wikidata.org/entity/Q2807,-3.7155506,POINT(-3.7155506  40.4390329),40.4390329
128b,Chamberí,http://www.wikidata.org/entity/Q1763370,Gaztambide,http://www.wikidata.org/entity/Q10288587,CALLE_DE_CEA_BERMUDEZ,"CALLE DE CEA BERMUDEZ, 59",59,3,Madrid,http://www.wikidata.org/entity/Q2807,-3.7156915,POINT(-3.7156915  40.4390391),40.4390391
129,Chamberí,http://www.wikidata.org/entity/Q1763370,Ríos Rosas,http://www.wikidata.org/entity/Q10366270,CALLE_DE_JOSE_ABASCAL,"CALLE DE JOSE ABASCAL, 33",33,24,Madrid,http://www.wikidata.org/entity/Q2807,-3.6982818,POINT(-3.6982818  40.4384684),40.4384684
130,Chamberí,http://www.wikidata.org/entity/Q1763370,Ríos Rosas,http://www.wikidata.org/entity/Q10366270,CALLE_DE_SANTA_ENGRACIA,"CALLE DE SANTA ENGRACIA, 129",129,20,Madrid,http://www.wikidata.org/entity/Q2807,-3.7017071,POINT(-3.7017071  40.4417195),40.4417195
131,Chamberí,http://www.wikidata.org/entity/Q1763370,Ríos Rosas,http://www.wikidata.org/entity/Q10366270,CALLE_DE_BRAVO_MURILLO,"CALLE DE BRAVO MURILLO, 44",44,24,Madrid,http://www.wikidata.org/entity/Q2807,-3.704022,POINT(-3.704022  40.4417543),40.4417543
132,Chamberí,http://www.wikidata.org/entity/Q1763370,Ríos Rosas,http://www.wikidata.org/entity/Q10366270,CALLE_DE_SANTA_ENGRACIA,"CALLE DE SANTA ENGRACIA, 168",168,24,Madrid,http://www.wikidata.org/entity/Q2807,-3.7035911,POINT(-3.7035911  40.4463889),40.4463889
133,Tetuán,http://www.wikidata.org/entity/Q1773540,Cuatro Caminos,http://www.wikidata.org/entity/Q5824684,CALLE_DE_DULCINEA,"CALLE DE DULCINEA, 3",3,24,Madrid,http://www.wikidata.org/entity/Q2807,-3.7000292,POINT(-3.7000292  40.4471673),40.4471673
134,Chamberí,http://www.wikidata.org/entity/Q1763370,Ríos Rosas,http://www.wikidata.org/entity/Q10366270,CALLE_DE_MARIA_DE_GUZMAN,"CALLE DE MARIA DE GUZMAN, 58",58,24,Madrid,http://www.wikidata.org/entity/Q2807,-3.6955114,POINT(-3.6955114  40.444027),40.444027
135,Chamberí,http://www.wikidata.org/entity/Q1763370,Ríos Rosas,http://www.wikidata.org/entity/Q10366270,PLAZA_DE_SAN_JUAN_DE_LA_CRUZ,"PLAZA DE SAN JUAN DE LA CRUZ, S/N",S/N,24,Madrid,http://www.wikidata.org/entity/Q2807,-3.6928901,POINT(-3.6928901  40.4414845),40.4414845
136,Chamartín,http://www.wikidata.org/entity/Q1766348,El Viso,http://www.wikidata.org/entity/Q4778,PASEO_DE_LA_CASTELLANA,"PASEO DE LA CASTELLANA, 106",106,24,Madrid,http://www.wikidata.org/entity/Q2807,-3.6908127,POINT(-3.6908127  40.4452833),40.4452833
137,Chamartín,http://www.wikidata.org/entity/Q1766348,El Viso,http://www.wikidata.org/entity/Q4778,PLAZA_DE_LA_REPUBLICA_ARGENTINA,"PLAZA DE LA REPUBLICA ARGENTINA, 6",6,24,Madrid,http://www.wikidata.org/entity/Q2807,-3.6852925,POINT(-3.6852925  40.4454958),40.4454958
138,Chamberí,http://www.wikidata.org/entity/Q1763370,Ríos Rosas,http://www.wikidata.org/entity/Q10366270,PASEO_DE_LA_CASTELLANA,"PASEO DE LA CASTELLANA, 108",108,24,Madrid,http://www.wikidata.org/entity/Q2807,-3.6915818,POINT(-3.6915818  40.4456884),40.4456884
139,Chamartín,http://www.wikidata.org/entity/Q1766348,El Viso,http://www.wikidata.org/entity/Q4778,CALLE_DE_JOSE_GUTIERREZ_ABASCAL,"CALLE DE JOSE GUTIERREZ ABASCAL, S/N",S/N,24,Madrid,http://www.wikidata.org/entity/Q2807,-3.6904495,POINT(-3.6904495  40.4393558),40.4393558
140a,Chamartín,http://www.wikidata.org/entity/Q1766348,El Viso,http://www.wikidata.org/entity/Q4778,CALLE_DE_VELAZQUEZ,"CALLE DE VELAZQUEZ, 134",134,24,Madrid,http://www.wikidata.org/entity/Q2807,-3.6829045,POINT(-3.6829045  40.438628),40.438628
140b,Chamartín,http://www.wikidata.org/entity/Q1766348,El Viso,http://www.wikidata.org/entity/Q4778,CALLE_DE_VELAZQUEZ,"CALLE DE VELAZQUEZ, 134",134,3,Madrid,http://www.wikidata.org/entity/Q2807,-3.6829127,POINT(-3.6829127  40.4385198),40.4385198
141,Chamberí,http://www.wikidata.org/entity/Q1763370,Almagro,http://www.wikidata.org/entity/Q10954432,PASEO_DE_LA_CASTELLANA,"PASEO DE LA CASTELLANA, 43",43,12,Madrid,http://www.wikidata.org/entity/Q2807,-3.6892902,POINT(-3.6892902  40.4354253),40.4354253
142,Salamanca,http://www.wikidata.org/entity/Q1773521,Castellana,http://www.wikidata.org/entity/Q4781,PASEO_DE_LA_CASTELLANA,"PASEO DE LA CASTELLANA, S/N",S/N,24,Madrid,http://www.wikidata.org/entity/Q2807,-3.6880402,POINT(-3.6880402  40.4335262),40.4335262
143,Salamanca,http://www.wikidata.org/entity/Q1773521,Lista,http://www.wikidata.org/entity/Q4779,CALLE_DE_DIEGO_DE_LEON,"CALLE DE DIEGO DE LEON, 54",54,24,Madrid,http://www.wikidata.org/entity/Q2807,-3.6782355,POINT(-3.6782355  40.434616),40.434616
144,Salamanca,http://www.wikidata.org/entity/Q1773521,Lista,http://www.wikidata.org/entity/Q4779,CALLE_DE_JUAN_BRAVO,"CALLE DE JUAN BRAVO, 50",50,24,Madrid,http://www.wikidata.org/entity/Q2807,-3.6754628,POINT(-3.6754628  40.4323192),40.4323192
145,Salamanca,http://www.wikidata.org/entity/Q1773521,Lista,http://www.wikidata.org/entity/Q4779,CALLE_DE_JOSE_ORTEGA_Y_GASSET,"CALLE DE JOSE ORTEGA Y GASSET, 87",87,24,Madrid,http://www.wikidata.org/entity/Q2807,-3.671401,POINT(-3.671401  40.4297717),40.4297717
146,Chamartín,http://www.wikidata.org/entity/Q1766348,El Viso,http://www.wikidata.org/entity/Q4778,CALLE_DE_MARIA_FRANCISCA,"CALLE DE MARIA FRANCISCA, 1",1,18,Madrid,http://www.wikidata.org/entity/Q2807,-3.67879,POINT(-3.67879  40.4442406),40.4442406
147,Chamartín,http://www.wikidata.org/entity/Q1766348,El Viso,http://www.wikidata.org/entity/Q4778,AVENIDA_DEL_DOCTOR_ARCE,"AVENIDA DEL DOCTOR ARCE, 45",45,24,Madrid,http://www.wikidata.org/entity/Q2807,-3.6795811,POINT(-3.6795811  40.4483353),40.4483353
148,Chamartín,http://www.wikidata.org/entity/Q1766348,El Viso,http://www.wikidata.org/entity/Q4778,CALLE_DE_SERRANO,"CALLE DE SERRANO, 210",210,24,Madrid,http://www.wikidata.org/entity/Q2807,-3.6816993,POINT(-3.6816993  40.4510203),40.4510203
149,Chamartín,http://www.wikidata.org/entity/Q1766348,El Viso,http://www.wikidata.org/entity/Q4778,PASEO_DE_LA_HABANA,"PASEO DE LA HABANA, 42",42,24,Madrid,http://www.wikidata.org/entity/Q2807,-3.6878512,POINT(-3.6878512  40.4498448),40.4498448
150,Chamartín,http://www.wikidata.org/entity/Q1766348,El Viso,http://www.wikidata.org/entity/Q4778,PASEO_DE_LA_CASTELLANA,"PASEO DE LA CASTELLANA, S/N",S/N,24,Madrid,http://www.wikidata.org/entity/Q2807,-3.690541,POINT(-3.690541  40.4491125),40.4491125
151,Tetuán,http://www.wikidata.org/entity/Q1773540,Cuatro Caminos,http://www.wikidata.org/entity/Q5824684,CALLE_DE_ORENSE,"CALLE DE ORENSE, 10",10,24,Madrid,http://www.wikidata.org/entity/Q2807,-3.6952023,POINT(-3.6952023  40.4488617),40.4488617
152,Tetuán,http://www.wikidata.org/entity/Q1773540,Cuatro Caminos,http://www.wikidata.org/entity/Q5824684,AVENIDA_DEL_GENERAL_PERON,"AVENIDA DEL GENERAL PERON, 4",4,24,Madrid,http://www.wikidata.org/entity/Q2807,-3.6989497,POINT(-3.6989497  40.4527163),40.4527163
153,Tetuán,http://www.wikidata.org/entity/Q1773540,Cuatro Caminos,http://www.wikidata.org/entity/Q5824684,AVENIDA_DEL_GENERAL_PERON,"AVENIDA DEL GENERAL PERON, 36",36,24,Madrid,http://www.wikidata.org/entity/Q2807,-3.6930894,POINT(-3.6930894  40.45235),40.45235
154,Tetuán,http://www.wikidata.org/entity/Q1773540,Cuatro Caminos,http://www.wikidata.org/entity/Q5824684,CALLE_DE_ORENSE,"CALLE DE ORENSE, 36",36,24,Madrid,http://www.wikidata.org/entity/Q2807,-3.6946736,POINT(-3.6946736  40.4547769),40.4547769
155,Tetuán,http://www.wikidata.org/entity/Q1773540,Cuatro Caminos,http://www.wikidata.org/entity/Q5824684,CALLE_DE_SAN_GERMAN,"CALLE DE SAN GERMÁN, 55",55,24,Madrid,http://www.wikidata.org/entity/Q2807,-3.700864,POINT(-3.700864  40.4572863),40.4572863
156,Tetuán,http://www.wikidata.org/entity/Q1773540,Castillejos,http://www.wikidata.org/entity/Q11913212,CALLE_DE_SOR_ANGELA_DE_LA_CRUZ,"CALLE DE SOR ANGELA DE LA CRUZ, 2",2,24,Madrid,http://www.wikidata.org/entity/Q2807,-3.6913229,POINT(-3.6913229  40.4592406),40.4592406
157,Chamartín,http://www.wikidata.org/entity/Q1766348,Nueva España,http://www.wikidata.org/entity/Q10338128,PASEO_DE_LA_CASTELLANA,"PASEO DE LA CASTELLANA, S/N",S/N,24,Madrid,http://www.wikidata.org/entity/Q2807,-3.6893305,POINT(-3.6893305  40.459282),40.459282
158,Chamartín,http://www.wikidata.org/entity/Q1766348,Hispanoamérica,http://www.wikidata.org/entity/Q3814573,AVENIDA_DE_ALBERTO_ALCOCER,"AVENIDA DE ALBERTO ALCOCER, 22 A",22 A,24,Madrid,http://www.wikidata.org/entity/Q2807,-3.6847049,POINT(-3.6847049  40.45862),40.45862
159,Chamartín,http://www.wikidata.org/entity/Q1766348,Hispanoamérica,http://www.wikidata.org/entity/Q3814573,PASEO_DE_LA_HABANA,"PASEO DE LA HABANA, 63",63,24,Madrid,http://www.wikidata.org/entity/Q2807,-3.6837348,POINT(-3.6837348  40.4542549),40.4542549
160,Chamartín,http://www.wikidata.org/entity/Q1766348,Hispanoamérica,http://www.wikidata.org/entity/Q3814573,CALLE_DE_COLOMBIA,"CALLE DE COLOMBIA, 7",7,24,Madrid,http://www.wikidata.org/entity/Q2807,-3.6766176,POINT(-3.6766176  40.4571995),40.4571995
161a,Moncloa-Aravaca,http://www.wikidata.org/entity/Q2017682,Casa de Campo,http://www.wikidata.org/entity/Q16302441,PASEO_DE_LA_FLORIDA,"PASEO DE LA FLORIDA, 8",8,24,Madrid,http://www.wikidata.org/entity/Q2807,-3.7220624,POINT(-3.7220624  40.4221372),40.4221372
161b,Moncloa-Aravaca,http://www.wikidata.org/entity/Q2017682,Casa de Campo,http://www.wikidata.org/entity/Q16302441,PASEO_DE_LA_FLORIDA,"PASEO DE LA FLORIDA, 6",6,3,Madrid,http://www.wikidata.org/entity/Q2807,-3.7219659,POINT(-3.7219659  40.4220566),40.4220566
162,Arganzuela,http://www.wikidata.org/entity/Q2000929,Las Acacias,http://www.wikidata.org/entity/Q3319190,PASEO_DE_LOS_OLMOS,"PASEO DE LOS OLMOS, 28",28,24,Madrid,http://www.wikidata.org/entity/Q2807,-3.7107559,POINT(-3.7107559  40.4035176),40.4035176
163,Arganzuela,http://www.wikidata.org/entity/Q2000929,Las Acacias,http://www.wikidata.org/entity/Q3319190,PASEO_DE_LA_ESPERANZA,"PASEO DE LA ESPERANZA, 1",1,21,Madrid,http://www.wikidata.org/entity/Q2807,-3.7064372,POINT(-3.7064372  40.4036349),40.4036349
164,Arganzuela,http://www.wikidata.org/entity/Q2000929,Las Delicias,http://www.wikidata.org/entity/Q3773736,PASEO_DE_LAS_DELICIAS,"PASEO DE LAS DELICIAS, 94",94,24,Madrid,http://www.wikidata.org/entity/Q2807,-3.6944851,POINT(-3.6944851  40.3971366),40.3971366
165,Arganzuela,http://www.wikidata.org/entity/Q2000929,La Chopera,http://www.wikidata.org/entity/Q3773750,PASEO_DE_LA_CHOPERA,"PASEO DE LA CHOPERA, 49",49,27,Madrid,http://www.wikidata.org/entity/Q2807,-3.6976134,POINT(-3.6976134  40.3928841),40.3928841
166,Centro,http://www.wikidata.org/entity/Q1763376,Palacio,http://www.wikidata.org/entity/Q2136510,CALLE_DE_SEGOVIA,"CALLE DE SEGOVIA, 21",21,24,Madrid,http://www.wikidata.org/entity/Q2807,-3.7133382,POINT(-3.7133382  40.4139396),40.4139396
167,Arganzuela,http://www.wikidata.org/entity/Q2000929,Imperial,http://www.wikidata.org/entity/Q3773740,CALLE_DE_SEGOVIA,"CALLE DE SEGOVIA, 47 A",47 A,24,Madrid,http://www.wikidata.org/entity/Q2807,-3.7176456,POINT(-3.7176456  40.4137331),40.4137331
168,Arganzuela,http://www.wikidata.org/entity/Q2000929,Palos de Moguer,http://www.wikidata.org/entity/Q521009,PASEO_DE_SANTA_MARIA_DE_LA_CABEZA,"PASEO DE SANTA MARIA DE LA CABEZA, 32",32,24,Madrid,http://www.wikidata.org/entity/Q2807,-3.6959159,POINT(-3.6959159  40.4045828),40.4045828
169,Arganzuela,http://www.wikidata.org/entity/Q2000929,Las Acacias,http://www.wikidata.org/entity/Q3319190,CALLE_DE_TOLEDO,"CALLE DE TOLEDO, 181",181,24,Madrid,http://www.wikidata.org/entity/Q2807,-3.713846,POINT(-3.713846  40.401578),40.401578
170,Arganzuela,http://www.wikidata.org/entity/Q2000929,Las Acacias,http://www.wikidata.org/entity/Q3319190,PASEO_DE_LA_ESPERANZA,"PASEO DE LA ESPERANZA, 21",21,24,Madrid,http://www.wikidata.org/entity/Q2807,-3.704403,POINT(-3.704403  40.4011039),40.4011039
171,Arganzuela,http://www.wikidata.org/entity/Q2000929,Las Delicias,http://www.wikidata.org/entity/Q3773736,CALLE_DE_EMBAJADORES,"CALLE DE EMBAJADORES, 97",97,24,Madrid,http://www.wikidata.org/entity/Q2807,-3.6984459,POINT(-3.6984459  40.3997626),40.3997626
172,Arganzuela,http://www.wikidata.org/entity/Q2000929,Palos de Moguer,http://www.wikidata.org/entity/Q521009,CALLE_DE_BUSTAMANTE,"CALLE DE BUSTAMANTE, 1",1,24,Madrid,http://www.wikidata.org/entity/Q2807,-3.6935448,POINT(-3.6935448  40.4008683),40.4008683
173,Arganzuela,http://www.wikidata.org/entity/Q2000929,Las Acacias,http://www.wikidata.org/entity/Q3319190,PASEO_DE_LA_ESPERANZA,"PASEO DE LA ESPERANZA, 59",59,24,Madrid,http://www.wikidata.org/entity/Q2807,-3.7023615,POINT(-3.7023615  40.3981757),40.3981757
174,Arganzuela,http://www.wikidata.org/entity/Q2000929,Las Acacias,http://www.wikidata.org/entity/Q3319190,PASEO_DE_LAS_YESERIAS,"PASEO DE LAS YESERIAS, 8",8,27,Madrid,http://www.wikidata.org/entity/Q2807,-3.7063771,POINT(-3.7063771  40.397417),40.397417
175,Arganzuela,http://www.wikidata.org/entity/Q2000929,La Chopera,http://www.wikidata.org/entity/Q3773750,CALLE_DE_JAIME_EL_CONQUISTADOR,"CALLE DE JAIME EL CONQUISTADOR, 30",30,21,Madrid,http://www.wikidata.org/entity/Q2807,-3.6983033,POINT(-3.6983033  40.3962687),40.3962687
176,Arganzuela,http://www.wikidata.org/entity/Q2000929,Las Delicias,http://www.wikidata.org/entity/Q3773736,CALLE_DE_ALICANTE,"CALLE DE ALICANTE, 3",3,24,Madrid,http://www.wikidata.org/entity/Q2807,-3.6936302,POINT(-3.6936302  40.3942411),40.3942411
177,Arganzuela,http://www.wikidata.org/entity/Q2000929,Las Delicias,http://www.wikidata.org/entity/Q3773736,CALLE_DE_BOLIVAR,"CALLE DE BOLIVAR, 3",3,24,Madrid,http://www.wikidata.org/entity/Q2807,-3.694087,POINT(-3.694087  40.3915019),40.3915019
178,Retiro,http://www.wikidata.org/entity/Q2002296,Pacífico,http://www.wikidata.org/entity/Q3773753,CALLE_DE_LEON_GIL_DE_PALACIO,"CALLE DE LEON GIL DE PALACIO, 1",1,24,Madrid,http://www.wikidata.org/entity/Q2807,-3.6788939,POINT(-3.6788939  40.4030242),40.4030242
179,Puente de Vallecas,http://www.wikidata.org/entity/Q2003054,San Diego,http://www.wikidata.org/entity/Q11946851,AUTOVIA_M-30,"AUTOVIA M-30, S/N",S/N,24,Madrid,http://www.wikidata.org/entity/Q2807,-3.6690602,POINT(-3.6690602  40.3979341),40.3979341
180,Arganzuela,http://www.wikidata.org/entity/Q2000929,Atocha,http://www.wikidata.org/entity/Q3814594,CALLE_DE_LA_RETAMA,"CALLE DE LA RETAMA, 5",5,24,Madrid,http://www.wikidata.org/entity/Q2807,-3.6759244,POINT(-3.6759244  40.3941252),40.3941252
181,Retiro,http://www.wikidata.org/entity/Q2002296,Ibiza,http://www.wikidata.org/entity/Q15249910,CALLE_DE_IBIZA,"CALLE DE IBIZA, 18",18,27,Madrid,http://www.wikidata.org/entity/Q2807,-3.67664,POINT(-3.67664  40.4181748),40.4181748
182,Retiro,http://www.wikidata.org/entity/Q2002296,Estrella,http://www.wikidata.org/entity/Q3773738,CALLE_DEL_ALCALDE_SAINZ_DE_BARANDA,"CALLE DEL ALCALDE SAINZ DE BARANDA, 90",90,24,Madrid,http://www.wikidata.org/entity/Q2807,-3.6655023,POINT(-3.6655023  40.4187145),40.4187145
183,Salamanca,http://www.wikidata.org/entity/Q1773521,Goya,http://www.wikidata.org/entity/Q3814578,CALLE_DE_HERMOSILLA,"CALLE DE HERMOSILLA, 135",135,24,Madrid,http://www.wikidata.org/entity/Q2807,-3.6694506,POINT(-3.6694506  40.4256358),40.4256358
184,Salamanca,http://www.wikidata.org/entity/Q1773521,Fuente del Berro,http://www.wikidata.org/entity/Q3814564,PASEO_DEL_MARQUES_DE_ZAFRA,"PASEO DEL MARQUES DE ZAFRA, 24",24,24,Madrid,http://www.wikidata.org/entity/Q2807,-3.6653095,POINT(-3.6653095  40.4260023),40.4260023
185,Salamanca,http://www.wikidata.org/entity/Q1773521,Fuente del Berro,http://www.wikidata.org/entity/Q3814564,GLORIETA_DEL_MARQUES_DE_ZAFRA,"GLORIETA DEL MARQUES DE ZAFRA, 4",4,24,Madrid,http://www.wikidata.org/entity/Q2807,-3.661533,POINT(-3.661533  40.4250682),40.4250682
186,Salamanca,http://www.wikidata.org/entity/Q1773521,Lista,http://www.wikidata.org/entity/Q4779,CALLE_DEL_GENERAL_PARDINAS,"CALLE DEL GENERAL PARDIÑAS, 56",56,24,Madrid,http://www.wikidata.org/entity/Q2807,-3.6782783,POINT(-3.6782783  40.429069),40.429069
187,Salamanca,http://www.wikidata.org/entity/Q1773521,Fuente del Berro,http://www.wikidata.org/entity/Q3814564,CALLE_DE_ALEJANDRO_GONZALEZ,"CALLE DE ALEJANDRO GONZALEZ, 1",1,24,Madrid,http://www.wikidata.org/entity/Q2807,-3.6638407,POINT(-3.6638407  40.4301353),40.4301353
188,Ciudad Lineal,http://www.wikidata.org/entity/Q1763694,Ventas,http://www.wikidata.org/entity/Q71762,AVENIDA_DE_DAROCA,"AVENIDA DE DAROCA, 2",2,27,Madrid,http://www.wikidata.org/entity/Q2807,-3.6589062,POINT(-3.6589062  40.4311658),40.4311658
189,Ciudad Lineal,http://www.wikidata.org/entity/Q1763694,Concepción,http://www.wikidata.org/entity/Q11915156,CALLE_DE_LA_VIRGEN_DE_LA_ALEGRIA,"CALLE DE LA VIRGEN DE LA ALEGRIA, 18",18,24,Madrid,http://www.wikidata.org/entity/Q2807,-3.6555431,POINT(-3.6555431  40.4350206),40.4350206
190,Salamanca,http://www.wikidata.org/entity/Q1773521,Castellana,http://www.wikidata.org/entity/Q4781,CALLE_DE_VELAZQUEZ,"CALLE DE VELAZQUEZ, 91",91,24,Madrid,http://www.wikidata.org/entity/Q2807,-3.6834711,POINT(-3.6834711  40.4343761),40.4343761
191,Salamanca,http://www.wikidata.org/entity/Q1773521,La Guindalera,http://www.wikidata.org/entity/Q3814559,CALLE_DE_ALONSO_HEREDIA,"CALLE DE ALONSO HEREDIA, 1",1,18,Madrid,http://www.wikidata.org/entity/Q2807,-3.6740365,POINT(-3.6740365  40.4346168),40.4346168
192,Salamanca,http://www.wikidata.org/entity/Q1773521,La Guindalera,http://www.wikidata.org/entity/Q3814559,AVENIDA_DE_LOS_TOREROS,"AVENIDA DE LOS TOREROS, 3",3,27,Madrid,http://www.wikidata.org/entity/Q2807,-3.6714315,POINT(-3.6714315  40.431855),40.431855
193,Salamanca,http://www.wikidata.org/entity/Q1773521,La Guindalera,http://www.wikidata.org/entity/Q3814559,AVENIDA_DE_LOS_TOREROS,"AVENIDA DE LOS TOREROS, 47",47,24,Madrid,http://www.wikidata.org/entity/Q2807,-3.665644,POINT(-3.665644  40.4325204),40.4325204
194,Salamanca,http://www.wikidata.org/entity/Q1773521,La Guindalera,http://www.wikidata.org/entity/Q3814559,CALLE_DE_FRANCISCO_SILVELA,"CALLE DE FRANCISCO SILVELA, 86",86,24,Madrid,http://www.wikidata.org/entity/Q2807,-3.6771947,POINT(-3.6771947  40.4371986),40.4371986
195,Chamartín,http://www.wikidata.org/entity/Q1766348,Prosperidad,http://www.wikidata.org/entity/Q4776,CALLE_DEL_PADRE_INDALECIO_HERNANDEZ,"CALLE DEL PADRE INDALECIO HERNANDEZ, 1",1,24,Madrid,http://www.wikidata.org/entity/Q2807,-3.6754913,POINT(-3.6754913  40.4392483),40.4392483
196,Chamartín,http://www.wikidata.org/entity/Q1766348,Ciudad Jardín,http://www.wikidata.org/entity/Q3773744,CALLE_DE_SUERO_DE_QUINONES,"CALLE DE SUERO DE QUIÑONES, 2",2,24,Madrid,http://www.wikidata.org/entity/Q2807,-3.6750918,POINT(-3.6750918  40.4440957),40.4440957
197,Chamartín,http://www.wikidata.org/entity/Q1766348,El Viso,http://www.wikidata.org/entity/Q4778,AVENIDA_DE_CONCHA_ESPINA,"AVENIDA DE CONCHA ESPINA, S/N",S/N,24,Madrid,http://www.wikidata.org/entity/Q2807,-3.6780252,POINT(-3.6780252  40.4515501),40.4515501
198,Chamberí,http://www.wikidata.org/entity/Q1763370,Almagro,http://www.wikidata.org/entity/Q10954432,GLORIETA_DE_RUBEN_DARIO,"GLORIETA DE RUBEN DARIO, 2",2,24,Madrid,http://www.wikidata.org/entity/Q2807,-3.6915713,POINT(-3.6915713  40.4331172),40.4331172
199,Chamberí,http://www.wikidata.org/entity/Q1763370,Gaztambide,http://www.wikidata.org/entity/Q10288587,CALLE_DE_FERNANDO_EL_CATOLICO,"CALLE DE FERNANDO EL CATOLICO, 61",61,27,Madrid,http://www.wikidata.org/entity/Q2807,-3.7148406,POINT(-3.7148406  40.4343244),40.4343244
200,Chamberí,http://www.wikidata.org/entity/Q1763370,Arapiles,http://www.wikidata.org/entity/Q10856744,GLORIETA_DE_QUEVEDO,"GLORIETA DE QUEVEDO, 4",4,24,Madrid,http://www.wikidata.org/entity/Q2807,-3.704671,POINT(-3.704671  40.4336617),40.4336617
201,Chamberí,http://www.wikidata.org/entity/Q1763370,Ríos Rosas,http://www.wikidata.org/entity/Q10366270,CALLE_DE_JOSE_ABASCAL,"CALLE DE JOSE ABASCAL, 2",2,24,Madrid,http://www.wikidata.org/entity/Q2807,-3.7038161,POINT(-3.7038161  40.4387323),40.4387323
202,Chamberí,http://www.wikidata.org/entity/Q1763370,Vallehermoso,http://www.wikidata.org/entity/Q6122685,CALLE_DE_SANTANDER,"CALLE DE SANTANDER, S/N",S/N,24,Madrid,http://www.wikidata.org/entity/Q2807,-3.7080969,POINT(-3.7080969  40.4411686),40.4411686
203,Chamberí,http://www.wikidata.org/entity/Q1763370,Vallehermoso,http://www.wikidata.org/entity/Q6122685,CALLE_DEL_GENERAL_AMPUDIA,"CALLE DEL GENERAL AMPUDIA, 2",2,24,Madrid,http://www.wikidata.org/entity/Q2807,-3.7144239,POINT(-3.7144239  40.4417547),40.4417547
204,Tetuán,http://www.wikidata.org/entity/Q1773540,Bellas Vistas,http://www.wikidata.org/entity/Q11908929,CALLE_DEL_DOCTOR_SANTERO,"CALLE DEL DOCTOR SANTERO, 1",1,24,Madrid,http://www.wikidata.org/entity/Q2807,-3.7041702,POINT(-3.7041702  40.4476606),40.4476606
205,Tetuán,http://www.wikidata.org/entity/Q1773540,Bellas Vistas,http://www.wikidata.org/entity/Q11908929,CALLE_DE_NAVARRA,"CALLE DE NAVARRA, 1",1,24,Madrid,http://www.wikidata.org/entity/Q2807,-3.7033408,POINT(-3.7033408  40.4535024),40.4535024
206,Tetuán,http://www.wikidata.org/entity/Q1773540,Berruguete,http://www.wikidata.org/entity/Q11909208,CALLE_DEL_MARQUES_DE_VIANA,"CALLE DEL MARQUES DE VIANA, 5",5,24,Madrid,http://www.wikidata.org/entity/Q2807,-3.6990499,POINT(-3.6990499  40.4607994),40.4607994
207,Tetuán,http://www.wikidata.org/entity/Q1773540,Valdeacederas,http://www.wikidata.org/entity/Q10388711,CALLE_DE_LAS_AZUCENAS,"CALLE DE LAS AZUCENAS, 1",1,18,Madrid,http://www.wikidata.org/entity/Q2807,-3.6973991,POINT(-3.6973991  40.4630291),40.4630291
208,Chamartín,http://www.wikidata.org/entity/Q1766348,Castilla,http://www.wikidata.org/entity/Q3813735,PASEO_DE_LA_CASTELLANA,"PASEO DE LA CASTELLANA, S/N",S/N,24,Madrid,http://www.wikidata.org/entity/Q2807,-3.6886852,POINT(-3.6886852  40.4665125),40.4665125
209,Chamartín,http://www.wikidata.org/entity/Q1766348,Nueva España,http://www.wikidata.org/entity/Q10338128,PLAZA_DE_CASTILLA,"PLAZA DE CASTILLA, 9",9,24,Madrid,http://www.wikidata.org/entity/Q2807,-3.6887875,POINT(-3.6887875  40.4656872),40.4656872
210,Centro,http://www.wikidata.org/entity/Q1763376,Sol,http://www.wikidata.org/entity/Q2465181,CALLE_DE_LAS_TRES_CRUCES,"CALLE DE LAS TRES CRUCES, 9",9,27,Madrid,http://www.wikidata.org/entity/Q2807,-3.702631,POINT(-3.702631  40.4197538),40.4197538
211,Centro,http://www.wikidata.org/entity/Q1763376,Universidad,http://www.wikidata.org/entity/Q10387767,CALLE_DEL_DESENGANO,"CALLE DEL DESENGAÑO, 3",3,24,Madrid,http://www.wikidata.org/entity/Q2807,-3.7025369,POINT(-3.7025369  40.4206168),40.4206168
212,Carabanchel,http://www.wikidata.org/entity/Q1001991,San Isidro,http://www.wikidata.org/entity/Q3813733,GLORIETA_DEL_MARQUES_DE_VADILLO,"GLORIETA DEL MARQUES DE VADILLO, 9",9,24,Madrid,http://www.wikidata.org/entity/Q2807,-3.7165313,POINT(-3.7165313  40.3981605),40.3981605
213,Usera,http://www.wikidata.org/entity/Q953368,Moscardó,http://www.wikidata.org/entity/Q11937679,CALLE_DE_ANTONIO_LOPEZ,"CALLE DE ANTONIO LOPEZ, 129",129,24,Madrid,http://www.wikidata.org/entity/Q2807,-3.7001575,POINT(-3.7001575  40.3889363),40.3889363
214,Ciudad Lineal,http://www.wikidata.org/entity/Q1763694,San Pascual,http://www.wikidata.org/entity/Q165612,CALLE_DE_LA_CONDESA_DE_VENADITO,"CALLE DE LA CONDESA DE VENADITO, 2",2,24,Madrid,http://www.wikidata.org/entity/Q2807,-3.6569597,POINT(-3.6569597  40.4434012),40.4434012
215,Ciudad Lineal,http://www.wikidata.org/entity/Q1763694,Pueblo Nuevo,http://www.wikidata.org/entity/Q71753,CALLE_DE_GUTIERRE_DE_CETINA,"CALLE DE GUTIERRE DE CETINA, 77",77,24,Madrid,http://www.wikidata.org/entity/Q2807,-3.6409697,POINT(-3.6409697  40.4296903),40.4296903
216,Latina,http://www.wikidata.org/entity/Q794954,Barrio de Puerta del Ángel,http://www.wikidata.org/entity/Q31142,PLAZA_DE_LA_PUERTA_DEL_ANGEL,"PLAZA DE LA PUERTA DEL ANGEL, 3",3,24,Madrid,http://www.wikidata.org/entity/Q2807,-3.7288948,POINT(-3.7288948  40.4140528),40.4140528
217,Fuencarral-El Pardo,http://www.wikidata.org/entity/Q656196,La Paz,http://www.wikidata.org/entity/Q5869740,CALLE_DE_PEDRO_RICO,"CALLE DE PEDRO RICO, 4",4,24,Madrid,http://www.wikidata.org/entity/Q2807,-3.6891094,POINT(-3.6891094  40.4810028),40.4810028
218,Moratalaz,http://www.wikidata.org/entity/Q2076109,Media Legua,http://www.wikidata.org/entity/Q9031035,CALLE_DEL_CAMINO_DE_LOS_VINATEROS,"CALLE DEL CAMINO DE LOS VINATEROS, 28",28,24,Madrid,http://www.wikidata.org/entity/Q2807,-3.6573999,POINT(-3.6573999  40.4105519),40.4105519
219,Moratalaz,http://www.wikidata.org/entity/Q2076109,Marroquina,http://www.wikidata.org/entity/Q11935636,CALLE_DEL_CAMINO_DE_LOS_VINATEROS,"CALLE DEL CAMINO DE LOS VINATEROS, 108",108,24,Madrid,http://www.wikidata.org/entity/Q2807,-3.6467783,POINT(-3.6467783  40.4083961),40.4083961
220,Moratalaz,http://www.wikidata.org/entity/Q2076109,Media Legua,http://www.wikidata.org/entity/Q9031035,CALLE_DEL_ARROYO_DE_LAS_PILILLAS,"CALLE DEL ARROYO DE LAS PILILLAS, 4",4,24,Madrid,http://www.wikidata.org/entity/Q2807,-3.6514264,POINT(-3.6514264  40.4061548),40.4061548
221,Moratalaz,http://www.wikidata.org/entity/Q2076109,Pavones,http://www.wikidata.org/entity/Q71760,CALLE_DE_LA_HACIENDA_DE_PAVONES,"CALLE DE LA HACIENDA DE PAVONES, 346",346,24,Madrid,http://www.wikidata.org/entity/Q2807,-3.6346859,POINT(-3.6346859  40.4004579),40.4004579
222,Usera,http://www.wikidata.org/entity/Q953368,Moscardó,http://www.wikidata.org/entity/Q11937679,CALLE_DE_EUGENIO_CAXES,"CALLE DE EUGENIO CAXES, 5",5,24,Madrid,http://www.wikidata.org/entity/Q2807,-3.7026887,POINT(-3.7026887  40.3917816),40.3917816
223,Latina,http://www.wikidata.org/entity/Q794954,Los Cármenes,http://www.wikidata.org/entity/Q10319792,PASEO_DE_LA_ERMITA_DEL_SANTO,"PASEO DE LA ERMITA DEL SANTO, 48",48,24,Madrid,http://www.wikidata.org/entity/Q2807,-3.7245226,POINT(-3.7245226  40.4064341),40.4064341
224,Latina,http://www.wikidata.org/entity/Q794954,Barrio de Puerta del Ángel,http://www.wikidata.org/entity/Q31142,CALLE_DE_CARAMUEL,"CALLE DE CARAMUEL, 52",52,24,Madrid,http://www.wikidata.org/entity/Q2807,-3.7288262,POINT(-3.7288262  40.408882),40.408882
225,Puente de Vallecas,http://www.wikidata.org/entity/Q2003054,Numancia,http://www.wikidata.org/entity/Q10338144,CALLE_DE_LA_SIERRA_TOLEDANA,"CALLE DE LA SIERRA TOLEDANA, 33",33,24,Madrid,http://www.wikidata.org/entity/Q2807,-3.6601933,POINT(-3.6601933  40.4026388),40.4026388
226,Puente de Vallecas,http://www.wikidata.org/entity/Q2003054,Numancia,http://www.wikidata.org/entity/Q10338144,CAMINO_DE_VALDERRIBAS,"CAMINO DE VALDERRIBAS, 94",94,24,Madrid,http://www.wikidata.org/entity/Q2807,-3.6606789,POINT(-3.6606789  40.3991986),40.3991986
227,Puente de Vallecas,http://www.wikidata.org/entity/Q2003054,San Diego,http://www.wikidata.org/entity/Q11946851,CALLE_DEL_ARROYO_DEL_OLIVAR,"CALLE DEL ARROYO DEL OLIVAR, 4",4,24,Madrid,http://www.wikidata.org/entity/Q2807,-3.6661421,POINT(-3.6661421  40.3940355),40.3940355
228,Carabanchel,http://www.wikidata.org/entity/Q1001991,Comillas,http://www.wikidata.org/entity/Q955844,CALLE_DE_SAN_DELFIN,"CALLE DE SAN DELFIN, 9",9,24,Madrid,http://www.wikidata.org/entity/Q2807,-3.7080437,POINT(-3.7080437  40.3943842),40.3943842
229,Ciudad Lineal,http://www.wikidata.org/entity/Q1763694,Concepción,http://www.wikidata.org/entity/Q11915156,CALLE_DE_JOSE_DEL_HIERRO,"CALLE DE JOSE DEL HIERRO, 5",5,24,Madrid,http://www.wikidata.org/entity/Q2807,-3.6486507,POINT(-3.6486507  40.4370782),40.4370782
230,Ciudad Lineal,http://www.wikidata.org/entity/Q1763694,San Pascual,http://www.wikidata.org/entity/Q165612,CALLE_DE_CARLOTA_ONEILL,"CALLE DE CARLOTA O'NEILL, 32",32,24,Madrid,http://www.wikidata.org/entity/Q2807,-3.6491034,POINT(-3.6491034  40.4436986),40.4436986
231,Ciudad Lineal,http://www.wikidata.org/entity/Q1763694,San Pascual,http://www.wikidata.org/entity/Q165612,CALLE_DE_LOS_DERECHOS_HUMANOS,"CALLE DE LOS DERECHOS HUMANOS, 14",14,24,Madrid,http://www.wikidata.org/entity/Q2807,-3.6558172,POINT(-3.6558172  40.439748),40.439748
232,Ciudad Lineal,http://www.wikidata.org/entity/Q1763694,Ventas,http://www.wikidata.org/entity/Q71762,CALLE_DE_JOSE_MARIA_PEREDA,"CALLE DE JOSE MARIA PEREDA, 1",1,24,Madrid,http://www.wikidata.org/entity/Q2807,-3.6485701,POINT(-3.6485701  40.4328362),40.4328362
233,Ciudad Lineal,http://www.wikidata.org/entity/Q1763694,Ventas,http://www.wikidata.org/entity/Q71762,AVENIDA_DEL_MARQUES_DE_CORBERA,"AVENIDA DEL MARQUES DE CORBERA, 12",12,24,Madrid,http://www.wikidata.org/entity/Q2807,-3.655633,POINT(-3.655633  40.4229144),40.4229144
234,Ciudad Lineal,http://www.wikidata.org/entity/Q1763694,Ventas,http://www.wikidata.org/entity/Q71762,AVENIDA_DEL_MARQUES_DE_CORBERA,"AVENIDA DEL MARQUES DE CORBERA, 52",52,24,Madrid,http://www.wikidata.org/entity/Q2807,-3.651125,POINT(-3.651125  40.426163),40.426163
235,Arganzuela,http://www.wikidata.org/entity/Q2000929,Legazpi,http://www.wikidata.org/entity/Q3773990,CALLE_DEL_SODIO,"CALLE DEL SODIO, 1 B",1 B,24,Madrid,http://www.wikidata.org/entity/Q2807,-3.6911834,POINT(-3.6911834  40.3889853),40.3889853
236,Arganzuela,http://www.wikidata.org/entity/Q2000929,Imperial,http://www.wikidata.org/entity/Q3773740,PASEO_IMPERIAL,"PASEO IMPERIAL, 20",20,24,Madrid,http://www.wikidata.org/entity/Q2807,-3.7171449,POINT(-3.7171449  40.4074236),40.4074236
237,Tetuán,http://www.wikidata.org/entity/Q1773540,Bellas Vistas,http://www.wikidata.org/entity/Q11908929,CALLE_DE_FRANCISCO_BALSEIRO,"CALLE DE FRANCISCO BALSEIRO, S/N",S/N,24,Madrid,http://www.wikidata.org/entity/Q2807,-3.7105146,POINT(-3.7105146  40.451395),40.451395
238,Tetuán,http://www.wikidata.org/entity/Q1773540,Cuatro Caminos,http://www.wikidata.org/entity/Q5824684,CALLE_DE_SAN_GERMAN,"CALLE DE SAN GERMÁN, 5",5,24,Madrid,http://www.wikidata.org/entity/Q2807,-3.6932474,POINT(-3.6932474  40.4562183),40.4562183
239,Tetuán,http://www.wikidata.org/entity/Q1773540,Berruguete,http://www.wikidata.org/entity/Q11909208,CALLE_DE_FRANCOS_RODRIGUEZ,"CALLE DE FRANCOS RODRIGUEZ, 62",62,24,Madrid,http://www.wikidata.org/entity/Q2807,-3.7079276,POINT(-3.7079276  40.4567345),40.4567345
240,Salamanca,http://www.wikidata.org/entity/Q1773521,La Guindalera,http://www.wikidata.org/entity/Q3814559,AVENIDA_DE_BRASILIA,"AVENIDA DE BRASILIA, 9",9,24,Madrid,http://www.wikidata.org/entity/Q2807,-3.6609886,POINT(-3.6609886  40.4367138),40.4367138
241,Salamanca,http://www.wikidata.org/entity/Q1773521,La Guindalera,http://www.wikidata.org/entity/Q3814559,AVENIDA_DE_CAMILO_JOSE_CELA,"AVENIDA DE CAMILO JOSE CELA, 23",23,24,Madrid,http://www.wikidata.org/entity/Q2807,-3.6677796,POINT(-3.6677796  40.4377568),40.4377568
242,Salamanca,http://www.wikidata.org/entity/Q1773521,La Guindalera,http://www.wikidata.org/entity/Q3814559,AVENIDA_DE_BRUSELAS,"AVENIDA DE BRUSELAS, 56",56,24,Madrid,http://www.wikidata.org/entity/Q2807,-3.6629058,POINT(-3.6629058  40.4394662),40.4394662
243,Salamanca,http://www.wikidata.org/entity/Q1773521,La Guindalera,http://www.wikidata.org/entity/Q3814559,CALLE_DE_CARTAGENA,"CALLE DE CARTAGENA, 38",38,24,Madrid,http://www.wikidata.org/entity/Q2807,-3.6700894,POINT(-3.6700894  40.4351648),40.4351648
244,Chamberí,http://www.wikidata.org/entity/Q1763370,Vallehermoso,http://www.wikidata.org/entity/Q6122685,CALLE_DE_ISAAC_PERAL,"CALLE DE ISAAC PERAL, 44",44,24,Madrid,http://www.wikidata.org/entity/Q2807,-3.7175468,POINT(-3.7175468  40.4398513),40.4398513
245,Chamberí,http://www.wikidata.org/entity/Q1763370,Arapiles,http://www.wikidata.org/entity/Q10856744,CALLE_DE_GALILEO,"CALLE DE GALILEO, 63",63,24,Madrid,http://www.wikidata.org/entity/Q2807,-3.7101726,POINT(-3.7101726  40.4364656),40.4364656
246,Chamberí,http://www.wikidata.org/entity/Q1763370,Trafalgar,http://www.wikidata.org/entity/Q10384027,CALLE_DE_SANTA_ENGRACIA,"CALLE DE SANTA ENGRACIA, 87",87,24,Madrid,http://www.wikidata.org/entity/Q2807,-3.699252,POINT(-3.699252  40.436026),40.436026
247,Chamberí,http://www.wikidata.org/entity/Q1763370,Ríos Rosas,http://www.wikidata.org/entity/Q10366270,CALLE_DE_ZURBANO,"CALLE DE ZURBANO, 90",90,24,Madrid,http://www.wikidata.org/entity/Q2807,-3.692843,POINT(-3.692843  40.4383672),40.4383672
248,Fuencarral-El Pardo,http://www.wikidata.org/entity/Q656196,La Paz,http://www.wikidata.org/entity/Q5869740,CALLE_DE_SINESIO_DELGADO,"CALLE DE SINESIO DELGADO, 2",2,24,Madrid,http://www.wikidata.org/entity/Q2807,-3.6878414,POINT(-3.6878414  40.4743243),40.4743243
249,Chamartín,http://www.wikidata.org/entity/Q1766348,Castilla,http://www.wikidata.org/entity/Q3813735,PASEO_DE_LA_CASTELLANA,"PASEO DE LA CASTELLANA, 298",298,24,Madrid,http://www.wikidata.org/entity/Q2807,-3.6852959,POINT(-3.6852959  40.4794159),40.4794159
250,Chamartín,http://www.wikidata.org/entity/Q1766348,El Viso,http://www.wikidata.org/entity/Q4778,CALLE_DE_SERRANO,"CALLE DE SERRANO, 113 b",113 b,24,Madrid,http://www.wikidata.org/entity/Q2807,-3.6861,POINT(-3.6861  40.4408151),40.4408151
251,Chamartín,http://www.wikidata.org/entity/Q1766348,Prosperidad,http://www.wikidata.org/entity/Q4776,CALLE_DE_SANTA_HORTENSIA,"CALLE DE SANTA HORTENSIA, 31",31,24,Madrid,http://www.wikidata.org/entity/Q2807,-3.6668532,POINT(-3.6668532  40.444183),40.444183
252,Chamartín,http://www.wikidata.org/entity/Q1766348,Castilla,http://www.wikidata.org/entity/Q3813735,CALLE_DE_RODRIGUEZ_JAEN,"CALLE DE RODRIGUEZ JAEN, S/N",S/N,24,Madrid,http://www.wikidata.org/entity/Q2807,-3.6839094,POINT(-3.6839094  40.4715645),40.4715645
253,Chamartín,http://www.wikidata.org/entity/Q1766348,Hispanoamérica,http://www.wikidata.org/entity/Q3814573,CALLE_DEL_DOCTOR_FLEMING,"CALLE DEL DOCTOR FLEMING, 7",7,24,Madrid,http://www.wikidata.org/entity/Q2807,-3.688443,POINT(-3.688443  40.455606),40.455606
254,Chamartín,http://www.wikidata.org/entity/Q1766348,Nueva España,http://www.wikidata.org/entity/Q10338128,AVENIDA_DE_PIO_XII,"AVENIDA DE PIO XII, 3",3,24,Madrid,http://www.wikidata.org/entity/Q2807,-3.6765549,POINT(-3.6765549  40.4610436),40.4610436
255,Chamartín,http://www.wikidata.org/entity/Q1766348,Nueva España,http://www.wikidata.org/entity/Q10338128,CALLE_DEL_GENERAL_LOPEZ_POZAS,"CALLE DEL GENERAL LOPEZ POZAS, 2",2,24,Madrid,http://www.wikidata.org/entity/Q2807,-3.6851815,POINT(-3.6851815  40.4637286),40.4637286
256,Moncloa-Aravaca,http://www.wikidata.org/entity/Q2017682,Ciudad Universitaria,http://www.wikidata.org/entity/Q3319235,CALLE_DE_BEATRIZ_DE_BOBADILLA,"CALLE DE BEATRIZ DE BOBADILLA, 2",2,24,Madrid,http://www.wikidata.org/entity/Q2807,-3.7138353,POINT(-3.7138353  40.4463599),40.4463599
257,Moncloa-Aravaca,http://www.wikidata.org/entity/Q2017682,Ciudad Universitaria,http://www.wikidata.org/entity/Q3319235,AVENIDA_DE_JUAN_DE_HERRERA,"AVENIDA DE JUAN DE HERRERA, 1",1,24,Madrid,http://www.wikidata.org/entity/Q2807,-3.73029,POINT(-3.73029  40.438804),40.438804
258,Moncloa-Aravaca,http://www.wikidata.org/entity/Q2017682,Ciudad Universitaria,http://www.wikidata.org/entity/Q3319235,AVENIDA_COMPLUTENSE,"AVENIDA COMPLUTENSE, 14",14,24,Madrid,http://www.wikidata.org/entity/Q2807,-3.7273004,POINT(-3.7273004  40.449019),40.449019
259,Moncloa-Aravaca,http://www.wikidata.org/entity/Q2017682,Ciudad Universitaria,http://www.wikidata.org/entity/Q3319235,PLAZA_DE_RAMON_Y_CAJAL,"PLAZA DE RAMON Y CAJAL, S/N",S/N,24,Madrid,http://www.wikidata.org/entity/Q2807,-3.727031,POINT(-3.727031  40.4444176),40.4444176
260,Moncloa-Aravaca,http://www.wikidata.org/entity/Q2017682,Ciudad Universitaria,http://www.wikidata.org/entity/Q3319235,CALLE_DE_JOSE_ANTONIO_NOVAIS,"CALLE DE JOSE ANTONIO NOVAIS, S/N",S/N,24,Madrid,http://www.wikidata.org/entity/Q2807,-3.7272637,POINT(-3.7272637  40.4482316),40.4482316
261,Moncloa-Aravaca,http://www.wikidata.org/entity/Q2017682,Ciudad Universitaria,http://www.wikidata.org/entity/Q3319235,AVENIDA_COMPLUTENSE,"AVENIDA COMPLUTENSE, 7",7,24,Madrid,http://www.wikidata.org/entity/Q2807,-3.7292576,POINT(-3.7292576  40.4505032),40.4505032
